{
"type": "FeatureCollection",
"name": "chongqingZ_transit_nodes",
"crs": { "type": "name", "properties": { "name": "urn:ogc:def:crs:OGC:1.3:CRS84" } },
"features": [
{ "type": "Feature", "properties": { "element_type": "node", "osmid": 530774230, "name": "重庆", "name:en": "Chongqing", "railway": "station", "station": null }, "geometry": { "type": "Point", "coordinates": [ 106.5415811, 29.5515144 ] } },
{ "type": "Feature", "properties": { "element_type": "node", "osmid": 661044018, "name": "黄花园", "name:en": "Huanghuayuan", "railway": "station", "station": "monorail" }, "geometry": { "type": "Point", "coordinates": [ 106.5612278, 29.5661367 ] } },
{ "type": "Feature", "properties": { "element_type": "node", "osmid": 661044857, "name": "大溪沟", "name:en": "Daxigou", "railway": "station", "station": "monorail" }, "geometry": { "type": "Point", "coordinates": [ 106.5548163, 29.568877 ] } },
{ "type": "Feature", "properties": { "element_type": "node", "osmid": 661044866, "name": "曾家岩", "name:en": "Zengjiayan", "railway": "station", "station": "monorail" }, "geometry": { "type": "Point", "coordinates": [ 106.5464303, 29.5692448 ] } },
{ "type": "Feature", "properties": { "element_type": "node", "osmid": 1854002079, "name": "石油路", "name:en": "Shiyoulu", "railway": "stop", "station": "subway" }, "geometry": { "type": "Point", "coordinates": [ 106.5044314, 29.5408932 ] } },
{ "type": "Feature", "properties": { "element_type": "node", "osmid": 1865272852, "name": null, "name:en": null, "railway": "subway_entrance", "station": null }, "geometry": { "type": "Point", "coordinates": [ 106.5707373, 29.5558862 ] } },
{ "type": "Feature", "properties": { "element_type": "node", "osmid": 1865272856, "name": null, "name:en": null, "railway": "subway_entrance", "station": null }, "geometry": { "type": "Point", "coordinates": [ 106.570734, 29.556015 ] } },
{ "type": "Feature", "properties": { "element_type": "node", "osmid": 1865272861, "name": null, "name:en": null, "railway": "subway_entrance", "station": null }, "geometry": { "type": "Point", "coordinates": [ 106.5716016, 29.5570672 ] } },
{ "type": "Feature", "properties": { "element_type": "node", "osmid": 1865337950, "name": null, "name:en": null, "railway": "subway_entrance", "station": null }, "geometry": { "type": "Point", "coordinates": [ 106.5671125, 29.5568672 ] } },
{ "type": "Feature", "properties": { "element_type": "node", "osmid": 1865946620, "name": null, "name:en": null, "railway": "subway_entrance", "station": null }, "geometry": { "type": "Point", "coordinates": [ 106.5701975, 29.5563251 ] } },
{ "type": "Feature", "properties": { "element_type": "node", "osmid": 1868304832, "name": null, "name:en": null, "railway": "subway_entrance", "station": null }, "geometry": { "type": "Point", "coordinates": [ 106.5696324, 29.556907 ] } },
{ "type": "Feature", "properties": { "element_type": "node", "osmid": 1868304836, "name": null, "name:en": null, "railway": "subway_entrance", "station": null }, "geometry": { "type": "Point", "coordinates": [ 106.5704749, 29.5566999 ] } },
{ "type": "Feature", "properties": { "element_type": "node", "osmid": 1872567916, "name": null, "name:en": null, "railway": "subway_entrance", "station": null }, "geometry": { "type": "Point", "coordinates": [ 106.5783728, 29.5606102 ] } },
{ "type": "Feature", "properties": { "element_type": "node", "osmid": 1872567918, "name": null, "name:en": null, "railway": "subway_entrance", "station": null }, "geometry": { "type": "Point", "coordinates": [ 106.5789978, 29.5610516 ] } },
{ "type": "Feature", "properties": { "element_type": "node", "osmid": 1874448657, "name": null, "name:en": null, "railway": "subway_entrance", "station": null }, "geometry": { "type": "Point", "coordinates": [ 106.5687467, 29.5558026 ] } },
{ "type": "Feature", "properties": { "element_type": "node", "osmid": 1874448660, "name": null, "name:en": null, "railway": "subway_entrance", "station": null }, "geometry": { "type": "Point", "coordinates": [ 106.5672533, 29.5558026 ] } },
{ "type": "Feature", "properties": { "element_type": "node", "osmid": 2390742421, "name": null, "name:en": null, "railway": "subway_entrance", "station": null }, "geometry": { "type": "Point", "coordinates": [ 106.5546242, 29.5685771 ] } },
{ "type": "Feature", "properties": { "element_type": "node", "osmid": 3370461497, "name": null, "name:en": null, "railway": "subway_entrance", "station": null }, "geometry": { "type": "Point", "coordinates": [ 106.5804916, 29.5623386 ] } },
{ "type": "Feature", "properties": { "element_type": "node", "osmid": 5324215612, "name": "大坪", "name:en": "Daping", "railway": "station", "station": "monorail" }, "geometry": { "type": "Point", "coordinates": [ 106.5153801, 29.5443324 ] } },
{ "type": "Feature", "properties": { "element_type": "node", "osmid": 5577833060, "name": null, "name:en": null, "railway": "subway_entrance", "station": null }, "geometry": { "type": "Point", "coordinates": [ 106.5293488, 29.5509351 ] } },
{ "type": "Feature", "properties": { "element_type": "node", "osmid": 5585946435, "name": null, "name:en": null, "railway": "subway_entrance", "station": null }, "geometry": { "type": "Point", "coordinates": [ 106.5800611, 29.5633736 ] } },
{ "type": "Feature", "properties": { "element_type": "node", "osmid": 5585946436, "name": null, "name:en": null, "railway": "subway_entrance", "station": null }, "geometry": { "type": "Point", "coordinates": [ 106.5802455, 29.5633071 ] } },
{ "type": "Feature", "properties": { "element_type": "node", "osmid": 5585946437, "name": null, "name:en": null, "railway": "subway_entrance", "station": null }, "geometry": { "type": "Point", "coordinates": [ 106.5797188, 29.5627338 ] } },
{ "type": "Feature", "properties": { "element_type": "node", "osmid": 5585946438, "name": null, "name:en": null, "railway": "subway_entrance", "station": null }, "geometry": { "type": "Point", "coordinates": [ 106.5798838, 29.5625626 ] } },
{ "type": "Feature", "properties": { "element_type": "node", "osmid": 5585946439, "name": null, "name:en": null, "railway": "subway_entrance", "station": null }, "geometry": { "type": "Point", "coordinates": [ 106.578397, 29.5632709 ] } },
{ "type": "Feature", "properties": { "element_type": "node", "osmid": 5619893122, "name": "两路口", "name:en": "Lianglukou", "railway": "station", "station": "subway" }, "geometry": { "type": "Point", "coordinates": [ 106.5445983, 29.5558311 ] } },
{ "type": "Feature", "properties": { "element_type": "node", "osmid": 6475285730, "name": "牛角沱", "name:en": "Niujiaotuo", "railway": "station", "station": "monorail" }, "geometry": { "type": "Point", "coordinates": [ 106.5388502, 29.5634801 ] } },
{ "type": "Feature", "properties": { "element_type": "node", "osmid": 6586951129, "name": "小什字", "name:en": "Xiaoshizi", "railway": "station", "station": "subway" }, "geometry": { "type": "Point", "coordinates": [ 106.579959, 29.5629546 ] } },
{ "type": "Feature", "properties": { "element_type": "node", "osmid": 6874556531, "name": null, "name:en": null, "railway": "subway_entrance", "station": null }, "geometry": { "type": "Point", "coordinates": [ 106.5461129, 29.56759 ] } },
{ "type": "Feature", "properties": { "element_type": "node", "osmid": 7165568414, "name": "两路口", "name:en": "Lianglukou", "railway": "station", "station": "monorail" }, "geometry": { "type": "Point", "coordinates": [ 106.5455849, 29.5554463 ] } },
{ "type": "Feature", "properties": { "element_type": "node", "osmid": 7646424124, "name": null, "name:en": null, "railway": "subway_entrance", "station": null }, "geometry": { "type": "Point", "coordinates": [ 106.5475796, 29.5653177 ] } },
{ "type": "Feature", "properties": { "element_type": "node", "osmid": 7704474990, "name": "牛角沱", "name:en": "Niujiaotuo", "railway": "station", "station": "monorail" }, "geometry": { "type": "Point", "coordinates": [ 106.5387799, 29.5618805 ] } },
{ "type": "Feature", "properties": { "element_type": "node", "osmid": 7706042457, "name": "较场口", "name:en": "Jiaochangkou", "railway": "station", "station": "monorail" }, "geometry": { "type": "Point", "coordinates": [ 106.570838, 29.5567259 ] } },
{ "type": "Feature", "properties": { "element_type": "node", "osmid": 7706042458, "name": null, "name:en": null, "railway": "subway_entrance", "station": null }, "geometry": { "type": "Point", "coordinates": [ 106.5683499, 29.5562527 ] } },
{ "type": "Feature", "properties": { "element_type": "node", "osmid": 7706042459, "name": null, "name:en": null, "railway": "subway_entrance", "station": null }, "geometry": { "type": "Point", "coordinates": [ 106.5691521, 29.55603 ] } },
{ "type": "Feature", "properties": { "element_type": "node", "osmid": 7706068679, "name": "七星岗", "name:en": "Qixinggang", "railway": "station", "station": "subway" }, "geometry": { "type": "Point", "coordinates": [ 106.558332, 29.5571383 ] } },
{ "type": "Feature", "properties": { "element_type": "node", "osmid": 7706068681, "name": null, "name:en": null, "railway": "subway_entrance", "station": null }, "geometry": { "type": "Point", "coordinates": [ 106.5599678, 29.5582678 ] } },
{ "type": "Feature", "properties": { "element_type": "node", "osmid": 7706068682, "name": null, "name:en": null, "railway": "subway_entrance", "station": null }, "geometry": { "type": "Point", "coordinates": [ 106.5580446, 29.5570196 ] } },
{ "type": "Feature", "properties": { "element_type": "node", "osmid": 7706068684, "name": "较场口", "name:en": "Jiaochangkou", "railway": "station", "station": "subway" }, "geometry": { "type": "Point", "coordinates": [ 106.5678326, 29.5563846 ] } },
{ "type": "Feature", "properties": { "element_type": "node", "osmid": 7706069680, "name": null, "name:en": null, "railway": "subway_entrance", "station": null }, "geometry": { "type": "Point", "coordinates": [ 106.5817208, 29.5627751 ] } },
{ "type": "Feature", "properties": { "element_type": "node", "osmid": 7706069681, "name": null, "name:en": null, "railway": "subway_entrance", "station": null }, "geometry": { "type": "Point", "coordinates": [ 106.5787746, 29.5616785 ] } },
{ "type": "Feature", "properties": { "element_type": "node", "osmid": 7706119485, "name": "小什字", "name:en": "Xiaoshizi", "railway": "station", "station": "subway" }, "geometry": { "type": "Point", "coordinates": [ 106.5791934, 29.5618154 ] } },
{ "type": "Feature", "properties": { "element_type": "node", "osmid": 9159661016, "name": "朝天门", "name:en": "Chaotianmen", "railway": "station", "station": "subway" }, "geometry": { "type": "Point", "coordinates": [ 106.5825137, 29.5672895 ] } },
{ "type": "Feature", "properties": { "element_type": "node", "osmid": 9351362643, "name": "李子坝", "name:en": "Liziba", "railway": "station", "station": "monorail" }, "geometry": { "type": "Point", "coordinates": [ 106.5339223, 29.5556616 ] } },
{ "type": "Feature", "properties": { "element_type": "node", "osmid": 9351362645, "name": "佛图关", "name:en": "Fotuguan", "railway": "station", "station": "monorail" }, "geometry": { "type": "Point", "coordinates": [ 106.5277495, 29.5521037 ] } },
{ "type": "Feature", "properties": { "element_type": "node", "osmid": 9386074225, "name": null, "name:en": null, "railway": "subway_entrance", "station": null }, "geometry": { "type": "Point", "coordinates": [ 106.5700543, 29.5555211 ] } },
{ "type": "Feature", "properties": { "element_type": "node", "osmid": 9436112299, "name": "红岩村", "name:en": "Hongyancun", "railway": "station", "station": "subway" }, "geometry": { "type": "Point", "coordinates": [ 106.4889346, 29.552701 ] } },
{ "type": "Feature", "properties": { "element_type": "node", "osmid": 9436112300, "name": "富华路", "name:en": "Fuhualu", "railway": "station", "station": "subway" }, "geometry": { "type": "Point", "coordinates": [ 106.4998191, 29.5536958 ] } },
{ "type": "Feature", "properties": { "element_type": "node", "osmid": 9436112301, "name": "化龙桥", "name:en": "Hualongqiao", "railway": "station", "station": "subway" }, "geometry": { "type": "Point", "coordinates": [ 106.5149021, 29.5527147 ] } },
{ "type": "Feature", "properties": { "element_type": "node", "osmid": 9459669833, "name": null, "name:en": null, "railway": "subway_entrance", "station": null }, "geometry": { "type": "Point", "coordinates": [ 106.5010252, 29.5531158 ] } },
{ "type": "Feature", "properties": { "element_type": "node", "osmid": 9459669834, "name": null, "name:en": null, "railway": "subway_entrance", "station": null }, "geometry": { "type": "Point", "coordinates": [ 106.5014882, 29.5541583 ] } },
{ "type": "Feature", "properties": { "element_type": "node", "osmid": 9459669835, "name": null, "name:en": null, "railway": "subway_entrance", "station": null }, "geometry": { "type": "Point", "coordinates": [ 106.4987997, 29.5544704 ] } },
{ "type": "Feature", "properties": { "element_type": "node", "osmid": 9463605804, "name": null, "name:en": null, "railway": "subway_entrance", "station": null }, "geometry": { "type": "Point", "coordinates": [ 106.5152258, 29.5532911 ] } },
{ "type": "Feature", "properties": { "element_type": "node", "osmid": 9463605805, "name": null, "name:en": null, "railway": "subway_entrance", "station": null }, "geometry": { "type": "Point", "coordinates": [ 106.5147517, 29.5520472 ] } },
{ "type": "Feature", "properties": { "element_type": "node", "osmid": 9702282474, "name": null, "name:en": null, "railway": "subway_entrance", "station": null }, "geometry": { "type": "Point", "coordinates": [ 106.5388963, 29.5616205 ] } },
{ "type": "Feature", "properties": { "element_type": "node", "osmid": 9702282475, "name": null, "name:en": null, "railway": "subway_entrance", "station": null }, "geometry": { "type": "Point", "coordinates": [ 106.5395275, 29.5627179 ] } },
{ "type": "Feature", "properties": { "element_type": "node", "osmid": 9702282476, "name": null, "name:en": null, "railway": "subway_entrance", "station": null }, "geometry": { "type": "Point", "coordinates": [ 106.5396674, 29.5635257 ] } },
{ "type": "Feature", "properties": { "element_type": "node", "osmid": 9702282477, "name": null, "name:en": null, "railway": "subway_entrance", "station": null }, "geometry": { "type": "Point", "coordinates": [ 106.5391595, 29.5639405 ] } },
{ "type": "Feature", "properties": { "element_type": "node", "osmid": 9702282489, "name": null, "name:en": null, "railway": "subway_entrance", "station": null }, "geometry": { "type": "Point", "coordinates": [ 106.5456348, 29.5562755 ] } },
{ "type": "Feature", "properties": { "element_type": "node", "osmid": 9702282490, "name": null, "name:en": null, "railway": "subway_entrance", "station": null }, "geometry": { "type": "Point", "coordinates": [ 106.5458155, 29.5559791 ] } },
{ "type": "Feature", "properties": { "element_type": "node", "osmid": 9702282491, "name": null, "name:en": null, "railway": "subway_entrance", "station": null }, "geometry": { "type": "Point", "coordinates": [ 106.545728, 29.5555106 ] } },
{ "type": "Feature", "properties": { "element_type": "node", "osmid": 9702282492, "name": null, "name:en": null, "railway": "subway_entrance", "station": null }, "geometry": { "type": "Point", "coordinates": [ 106.5455187, 29.5552736 ] } },
{ "type": "Feature", "properties": { "element_type": "node", "osmid": 9702282493, "name": null, "name:en": null, "railway": "subway_entrance", "station": null }, "geometry": { "type": "Point", "coordinates": [ 106.5452907, 29.555331 ] } },
{ "type": "Feature", "properties": { "element_type": "node", "osmid": 9934815039, "name": "石油路", "name:en": "Shiyoulu", "railway": "stop", "station": "subway" }, "geometry": { "type": "Point", "coordinates": [ 106.5043482, 29.5410052 ] } },
{ "type": "Feature", "properties": { "element_type": "node", "osmid": 9954696071, "name": "鹅岭", "name:en": "Eling", "railway": "station", "station": "subway" }, "geometry": { "type": "Point", "coordinates": [ 106.5294874, 29.5507912 ] } },
{ "type": "Feature", "properties": { "element_type": "node", "osmid": 9954696073, "name": "大坪", "name:en": "Daping", "railway": "station", "station": "subway" }, "geometry": { "type": "Point", "coordinates": [ 106.5153977, 29.5433766 ] } },
{ "type": "Feature", "properties": { "element_type": "node", "osmid": 9954696074, "name": "石油路", "name:en": "Shiyoulu", "railway": "station", "station": "subway" }, "geometry": { "type": "Point", "coordinates": [ 106.5043857, 29.5409575 ] } },
{ "type": "Feature", "properties": { "element_type": "node", "osmid": 10175786339, "name": null, "name:en": null, "railway": "subway_entrance", "station": null }, "geometry": { "type": "Point", "coordinates": [ 106.543853, 29.555795 ] } },
{ "type": "Feature", "properties": { "element_type": "node", "osmid": 10177654725, "name": "临江门", "name:en": "Linjiangmen", "railway": "station", "station": "monorail" }, "geometry": { "type": "Point", "coordinates": [ 106.5711552, 29.5610912 ] } },
{ "type": "Feature", "properties": { "element_type": "node", "osmid": 10743557892, "name": "大礼堂", "name:en": "Chongqing People’s Auditorium", "railway": "station", "station": "subway" }, "geometry": { "type": "Point", "coordinates": [ 106.5522592, 29.56436 ] } },
{ "type": "Feature", "properties": { "element_type": "node", "osmid": 11193733910, "name": "歇台子", "name:en": "Xietaizi", "railway": "station", "station": "subway" }, "geometry": { "type": "Point", "coordinates": [ 106.4950304, 29.541461 ] } },
{ "type": "Feature", "properties": { "element_type": "node", "osmid": 11205302956, "name": "红岩村", "name:en": "Hongyancun", "railway": "station", "station": "subway" }, "geometry": { "type": "Point", "coordinates": [ 106.4906467, 29.5541971 ] } },
{ "type": "Feature", "properties": { "element_type": "node", "osmid": 11403386224, "name": "十八梯出入口", "name:en": null, "railway": "subway_entrance", "station": null }, "geometry": { "type": "Point", "coordinates": [ 106.5694794, 29.5556227 ] } },
{ "type": "Feature", "properties": { "element_type": "node", "osmid": 11687965493, "name": null, "name:en": null, "railway": "subway_entrance", "station": null }, "geometry": { "type": "Point", "coordinates": [ 106.4902381, 29.5545975 ] } },
{ "type": "Feature", "properties": { "element_type": "node", "osmid": 11687965494, "name": null, "name:en": null, "railway": "subway_entrance", "station": null }, "geometry": { "type": "Point", "coordinates": [ 106.4911305, 29.5545822 ] } },
{ "type": "Feature", "properties": { "element_type": "node", "osmid": 11987914503, "name": null, "name:en": null, "railway": "subway_entrance", "station": null }, "geometry": { "type": "Point", "coordinates": [ 106.5587917, 29.558671 ] } },
{ "type": "Feature", "properties": { "element_type": "node", "osmid": 11994722939, "name": null, "name:en": null, "railway": "subway_entrance", "station": null }, "geometry": { "type": "Point", "coordinates": [ 106.4896089, 29.5523439 ] } },
{ "type": "Feature", "properties": { "element_type": "node", "osmid": 13026257060, "name": null, "name:en": null, "railway": "subway_entrance", "station": null }, "geometry": { "type": "Point", "coordinates": [ 106.5827858, 29.5662203 ] } },
{ "type": "Feature", "properties": { "element_type": "node", "osmid": 13026853898, "name": null, "name:en": null, "railway": "subway_entrance", "station": null }, "geometry": { "type": "Point", "coordinates": [ 106.561119, 29.5655659 ] } },
{ "type": "Feature", "properties": { "element_type": "node", "osmid": 13027157592, "name": null, "name:en": null, "railway": "subway_entrance", "station": null }, "geometry": { "type": "Point", "coordinates": [ 106.5338169, 29.5557243 ] } },
{ "type": "Feature", "properties": { "element_type": "node", "osmid": 13027157597, "name": null, "name:en": null, "railway": "subway_entrance", "station": null }, "geometry": { "type": "Point", "coordinates": [ 106.5342971, 29.5557929 ] } },
{ "type": "Feature", "properties": { "element_type": "node", "osmid": 13273977404, "name": null, "name:en": null, "railway": "subway_entrance", "station": null }, "geometry": { "type": "Point", "coordinates": [ 106.5514253, 29.5646113 ] } },
{ "type": "Feature", "properties": { "element_type": "node", "osmid": 13273977405, "name": null, "name:en": null, "railway": "subway_entrance", "station": null }, "geometry": { "type": "Point", "coordinates": [ 106.5517024, 29.5653073 ] } },
{ "type": "Feature", "properties": { "element_type": "node", "osmid": 13273977410, "name": null, "name:en": null, "railway": "subway_entrance", "station": null }, "geometry": { "type": "Point", "coordinates": [ 106.5523467, 29.5640993 ] } },
{ "type": "Feature", "properties": { "element_type": "node", "osmid": 13449490271, "name": null, "name:en": null, "railway": "subway_entrance", "station": null }, "geometry": { "type": "Point", "coordinates": [ 106.5710698, 29.5603459 ] } },
{ "type": "Feature", "properties": { "element_type": "node", "osmid": 13449490297, "name": null, "name:en": null, "railway": "subway_entrance", "station": null }, "geometry": { "type": "Point", "coordinates": [ 106.5729427, 29.5613119 ] } },
{ "type": "Feature", "properties": { "element_type": "node", "osmid": 13450833393, "name": null, "name:en": null, "railway": "subway_entrance", "station": null }, "geometry": { "type": "Point", "coordinates": [ 106.5706411, 29.5620819 ] } },
{ "type": "Feature", "properties": { "element_type": "node", "osmid": 13456375026, "name": null, "name:en": null, "railway": "subway_entrance", "station": null }, "geometry": { "type": "Point", "coordinates": [ 106.5827503, 29.5666106 ] } },
{ "type": "Feature", "properties": { "element_type": "node", "osmid": 13457428846, "name": null, "name:en": null, "railway": "subway_entrance", "station": null }, "geometry": { "type": "Point", "coordinates": [ 106.5399551, 29.5637688 ] } },
{ "type": "Feature", "properties": { "element_type": "node", "osmid": 13612252685, "name": null, "name:en": null, "railway": "subway_entrance", "station": null }, "geometry": { "type": "Point", "coordinates": [ 106.5786307, 29.5636233 ] } }
]
}
