{
    "version": 0.6,
    "generator": "Overpass API 0.7.62.11 87bfad18",
    "osm3s": {
        "timestamp_osm_base": "2026-04-23T03:39:46Z",
        "timestamp_areas_base": "2026-04-22T23:40:06Z",
        "copyright": "The data included in this document is from www.openstreetmap.org. The data is made available under ODbL."
    },
    "elements": [
        {
            "type": "node",
            "id": 1320185865,
            "lat": 22.5174123,
            "lon": 113.9226398,
            "tags": {
                "amenity": "post_office",
                "name": "南山邮局"
            }
        },
        {
            "type": "node",
            "id": 1691380897,
            "lat": 22.5316001,
            "lon": 113.9030157,
            "tags": {
                "amenity": "post_office",
                "brand": "中国邮政",
                "brand:en": "China Post",
                "brand:wikidata": "Q1066476",
                "brand:zh": "中国邮政",
                "name": "中国邮政",
                "name:en": "China Post",
                "name:zh": "中国邮政",
                "name:zh-Hans": "中国邮政",
                "name:zh-Hant": "中國郵政",
                "operator": "中国邮政"
            }
        },
        {
            "type": "node",
            "id": 2149874648,
            "lat": 22.5695654,
            "lon": 114.1239069,
            "tags": {
                "amenity": "post_office",
                "name": "田贝邮局"
            }
        },
        {
            "type": "node",
            "id": 2453780717,
            "lat": 22.5354027,
            "lon": 113.9292594,
            "tags": {
                "amenity": "post_office"
            }
        },
        {
            "type": "node",
            "id": 2753494482,
            "lat": 22.7106662,
            "lon": 114.208149,
            "tags": {
                "amenity": "post_office"
            }
        },
        {
            "type": "node",
            "id": 2957309739,
            "lat": 22.5285433,
            "lon": 113.9626296,
            "tags": {
                "amenity": "charging_station"
            }
        },
        {
            "type": "node",
            "id": 3070333381,
            "lat": 22.6218447,
            "lon": 114.0495169,
            "tags": {
                "access": "customers",
                "amenity": "charging_station",
                "bicycle": "no",
                "brand": "Tesla Supercharger",
                "brand:wikidata": "Q17089620",
                "capacity": "6",
                "motorcar": "yes",
                "name": "Tesla Supercharger Shenzhen",
                "opening_hours": "24/7",
                "operator": "Tesla",
                "operator:wikidata": "Q478214",
                "short_name": "Tesla"
            }
        },
        {
            "type": "node",
            "id": 3176643463,
            "lat": 22.5502492,
            "lon": 114.1440414,
            "tags": {
                "addr:city": "深圳市",
                "addr:housenumber": "31",
                "addr:street": "新秀路",
                "amenity": "post_office",
                "branch": "通发代办所",
                "brand": "中国邮政",
                "brand:en": "China Post",
                "brand:wikidata": "Q1066476",
                "brand:wikipedia": "zh:中国邮政",
                "brand:zh": "中国邮政",
                "full_name": "中国邮政通发代办所",
                "name": "中国邮政",
                "name:en": "China Post",
                "name:zh": "中国邮政",
                "name:zh-Hans": "中国邮政",
                "name:zh-Hant": "中國郵政",
                "phone": "+86 755 2224 1057"
            }
        },
        {
            "type": "node",
            "id": 3687655929,
            "lat": 22.5490585,
            "lon": 114.0361465,
            "tags": {
                "amenity": "post_office",
                "brand": "中国邮政",
                "brand:en": "China Post",
                "brand:wikidata": "Q1066476",
                "brand:wikipedia": "zh:中国邮政",
                "brand:zh": "中国邮政",
                "name": "中国邮政",
                "name:en": "China Post",
                "name:zh": "中国邮政",
                "name:zh-Hans": "中国邮政",
                "name:zh-Hant": "中國郵政"
            }
        },
        {
            "type": "node",
            "id": 3724312996,
            "lat": 22.5365939,
            "lon": 114.1120742,
            "tags": {
                "amenity": "post_office",
                "name": "CRE中铁快运到达配送中心",
                "name:en": "CRE China Rail Express (freight collection)",
                "network": "China Railway Express",
                "website": "https://www.95572.com/"
            }
        },
        {
            "type": "node",
            "id": 3928932986,
            "lat": 22.6563835,
            "lon": 114.0614207,
            "tags": {
                "amenity": "post_office",
                "brand": "圆通速递",
                "brand:en": "YTO Express",
                "brand:wikidata": "Q10926656",
                "brand:zh": "圆通速递",
                "name": "圆通速递",
                "name:en": "YTO Express",
                "name:zh": "圆通速递",
                "short_name": "圆通"
            }
        },
        {
            "type": "node",
            "id": 3928932987,
            "lat": 22.6564406,
            "lon": 114.0613848,
            "tags": {
                "amenity": "post_office",
                "brand": "顺丰速运",
                "brand:en": "SF Express",
                "brand:wikidata": "Q7390019",
                "brand:zh": "顺丰速运",
                "name": "顺丰速运",
                "name:en": "SF Express",
                "name:zh": "顺丰速运",
                "short_name": "顺丰"
            }
        },
        {
            "type": "node",
            "id": 3928932988,
            "lat": 22.6564932,
            "lon": 114.0613132,
            "tags": {
                "amenity": "post_office",
                "brand": "韵达速递",
                "brand:en": "Yunda Express",
                "brand:wikidata": "Q17010677",
                "brand:zh": "韵达速递",
                "name": "韵达速递",
                "name:en": "Yunda Express",
                "name:zh": "韵达速递",
                "short_name": "韵达"
            }
        },
        {
            "type": "node",
            "id": 4146795602,
            "lat": 22.5427189,
            "lon": 114.0234903,
            "tags": {
                "amenity": "charging_station",
                "name": "力能加电站香蜜湖站",
                "operator": "Potevio"
            }
        },
        {
            "type": "node",
            "id": 4146795603,
            "lat": 22.564008,
            "lon": 114.0330746,
            "tags": {
                "amenity": "charging_station",
                "name": "力能加电站下梅林站",
                "operator": "Potevio"
            }
        },
        {
            "type": "node",
            "id": 4327602190,
            "lat": 22.627394,
            "lon": 114.0517597,
            "tags": {
                "amenity": "charging_station"
            }
        },
        {
            "type": "node",
            "id": 5285717321,
            "lat": 22.533218,
            "lon": 113.9321639,
            "tags": {
                "amenity": "post_office",
                "name": "杜鹃山快递中心",
                "name:en": "Dujuanshan Express Center",
                "name:zh": "杜鹃山快递中心",
                "name:zh-Hans": "杜鹃山快递中心",
                "name:zh-Hant": "杜鵑山快遞中心",
                "opening_hours": "Mo-Su 09:00-20:00"
            }
        },
        {
            "type": "node",
            "id": 5436760387,
            "lat": 22.5593668,
            "lon": 114.2337943,
            "tags": {
                "amenity": "charging_station"
            }
        },
        {
            "type": "node",
            "id": 5485679384,
            "lat": 22.4980325,
            "lon": 113.9173821,
            "tags": {
                "addr:housenumber": "125",
                "addr:street": "工业七路",
                "amenity": "post_office",
                "branch": "蛇口邮政支局",
                "brand": "中国邮政",
                "brand:en": "China Post",
                "brand:wikidata": "Q1066476",
                "brand:zh": "中国邮政",
                "check_date": "2026-03-07",
                "name": "中国邮政",
                "name:en": "China Post",
                "name:zh": "中国邮政",
                "opening_hours": "09:00-17:00",
                "operator": "中国邮政",
                "operator:wikidata": "Q1066476"
            }
        },
        {
            "type": "node",
            "id": 5616290280,
            "lat": 22.5228751,
            "lon": 113.9448869,
            "tags": {
                "amenity": "charging_station",
                "brand": "Tesla Supercharger",
                "brand:wikidata": "Q17089620",
                "fee": "yes",
                "motorcar": "yes",
                "name": "特斯拉超级充电站",
                "name:en": "Tesla Supercharger",
                "name:zh": "特斯拉超级充电站",
                "opening_hours": "24/7",
                "operator": "Tesla",
                "operator:wikidata": "Q478214",
                "socket:gb_dc": "16",
                "socket:gb_dc:output": "250 kW"
            }
        },
        {
            "type": "node",
            "id": 6217816992,
            "lat": 22.4902131,
            "lon": 113.9290925,
            "tags": {
                "amenity": "post_office",
                "brand": "顺丰速运",
                "brand:en": "SF Express",
                "brand:short": "顺丰",
                "brand:wikidata": "Q7390019",
                "brand:wikipedia": "zh:顺丰速运",
                "brand:zh": "顺丰速运",
                "name": "顺丰速运",
                "name:en": "SF Express",
                "name:zh": "顺丰速运",
                "short_name": "顺丰"
            }
        },
        {
            "type": "node",
            "id": 6217816993,
            "lat": 22.4935987,
            "lon": 113.9234499,
            "tags": {
                "amenity": "post_office",
                "brand": "顺丰速运",
                "brand:en": "SF Express",
                "brand:short": "顺丰",
                "brand:wikidata": "Q7390019",
                "brand:wikipedia": "zh:顺丰速运",
                "brand:zh": "顺丰速运",
                "name": "顺丰速运",
                "name:en": "SF Express",
                "name:zh": "顺丰速运",
                "short_name": "顺丰"
            }
        },
        {
            "type": "node",
            "id": 6307789831,
            "lat": 22.5387246,
            "lon": 113.9635423,
            "tags": {
                "amenity": "post_office",
                "brand": "申通快递",
                "brand:en": "STO Express",
                "brand:wikidata": "Q10426347",
                "brand:wikipedia": "zh:申通快递",
                "brand:zh": "申通快递",
                "name": "申通快递",
                "name:en": "STO Express",
                "name:zh": "申通快递",
                "short_name": "申通"
            }
        },
        {
            "type": "node",
            "id": 6307789889,
            "lat": 22.5386008,
            "lon": 113.9629132,
            "tags": {
                "amenity": "post_office",
                "name": "中通快递（普通网点）",
                "wheelchair": "limited"
            }
        },
        {
            "type": "node",
            "id": 6307789924,
            "lat": 22.5381252,
            "lon": 113.9635602,
            "tags": {
                "amenity": "post_office",
                "name": "中通快递红树湾中心"
            }
        },
        {
            "type": "node",
            "id": 6307790005,
            "lat": 22.5388687,
            "lon": 113.9626147,
            "tags": {
                "amenity": "post_office",
                "name": "圆通速递",
                "wheelchair": "limited"
            }
        },
        {
            "type": "node",
            "id": 6344241485,
            "lat": 22.6345918,
            "lon": 113.8302395,
            "tags": {
                "amenity": "post_office",
                "name:en": "SF EXPRESS branch"
            }
        },
        {
            "type": "node",
            "id": 7486004259,
            "lat": 22.7007303,
            "lon": 113.8056197,
            "tags": {
                "addr:housenumber": "六巷7号",
                "amenity": "charging_station"
            }
        },
        {
            "type": "node",
            "id": 7486050125,
            "lat": 22.7000782,
            "lon": 113.8061821,
            "tags": {
                "addr:housenumber": "二巷2号",
                "amenity": "charging_station"
            }
        },
        {
            "type": "node",
            "id": 7495766762,
            "lat": 22.5463327,
            "lon": 113.9385443,
            "tags": {
                "amenity": "post_office",
                "branch": "深圳高新支局",
                "brand": "中国邮政",
                "brand:en": "China Post",
                "brand:wikidata": "Q1066476",
                "brand:wikipedia": "zh:中国邮政",
                "brand:zh": "中国邮政",
                "full_name": "中国邮政深圳高新支局",
                "name": "中国邮政",
                "name:en": "China Post",
                "name:zh": "中国邮政",
                "name:zh-Hans": "中国邮政",
                "name:zh-Hant": "中國郵政"
            }
        },
        {
            "type": "node",
            "id": 7510706890,
            "lat": 22.5489793,
            "lon": 113.9952332,
            "tags": {
                "amenity": "charging_station",
                "motorcar": "yes"
            }
        },
        {
            "type": "node",
            "id": 7510706891,
            "lat": 22.5488224,
            "lon": 113.9952531,
            "tags": {
                "amenity": "charging_station",
                "motorcar": "yes"
            }
        },
        {
            "type": "node",
            "id": 7510706892,
            "lat": 22.5483359,
            "lon": 113.9952355,
            "tags": {
                "amenity": "charging_station",
                "motorcar": "yes"
            }
        },
        {
            "type": "node",
            "id": 7510706893,
            "lat": 22.5484809,
            "lon": 113.9952883,
            "tags": {
                "amenity": "charging_station",
                "motorcar": "yes"
            }
        },
        {
            "type": "node",
            "id": 7510706894,
            "lat": 22.5486336,
            "lon": 113.9953197,
            "tags": {
                "amenity": "charging_station",
                "motorcar": "yes"
            }
        },
        {
            "type": "node",
            "id": 7510706895,
            "lat": 22.5485756,
            "lon": 113.9945404,
            "tags": {
                "amenity": "charging_station",
                "motorcar": "yes"
            }
        },
        {
            "type": "node",
            "id": 7510706896,
            "lat": 22.5487107,
            "lon": 113.9946215,
            "tags": {
                "amenity": "charging_station",
                "motorcar": "yes"
            }
        },
        {
            "type": "node",
            "id": 7510706897,
            "lat": 22.5488408,
            "lon": 113.9947195,
            "tags": {
                "amenity": "charging_station",
                "motorcar": "yes"
            }
        },
        {
            "type": "node",
            "id": 7510706898,
            "lat": 22.5489723,
            "lon": 113.9948144,
            "tags": {
                "amenity": "charging_station",
                "motorcar": "yes"
            }
        },
        {
            "type": "node",
            "id": 8253876956,
            "lat": 22.538656,
            "lon": 113.9629356,
            "tags": {
                "amenity": "post_office",
                "brand": "顺丰速运",
                "brand:en": "SF Express",
                "brand:wikidata": "Q7390019",
                "brand:wikipedia": "zh:顺丰速运",
                "brand:zh": "顺丰速运",
                "name": "顺丰快递",
                "name:en": "SF Express",
                "name:zh": "顺丰速运",
                "short_name": "顺丰"
            }
        },
        {
            "type": "node",
            "id": 8856082076,
            "lat": 22.6044297,
            "lon": 113.9943646,
            "tags": {
                "amenity": "post_office",
                "name": "学生宿舍13栋",
                "name:en": "Youyuehui",
                "name:zh": "优阅汇超市",
                "name:zh-Hans": "天虹微喔",
                "name:zh-Hant": "天虹微喔",
                "opening_hours": "Mo-Su 08:00-19:00",
                "shop": "convenience"
            }
        },
        {
            "type": "node",
            "id": 9419666733,
            "lat": 22.6151681,
            "lon": 114.033771,
            "tags": {
                "amenity": "charging_station",
                "bicycle": "yes",
                "capacity": "10",
                "charge": "100min/1cny",
                "fee": "yes",
                "motor_vehicle": "no",
                "name": "两轮电瓶车充电站",
                "name:en": "Electric Bike Charging Station",
                "name:zh": "两轮电瓶车充电站",
                "note": "电瓶车_electric_bicycle",
                "payment:alipay": "yes",
                "payment:wechat": "yes"
            }
        },
        {
            "type": "node",
            "id": 9419666734,
            "lat": 22.6149082,
            "lon": 114.0349914,
            "tags": {
                "amenity": "charging_station",
                "capacity": "10",
                "charge": "100min/1cny",
                "fee": "yes",
                "name": "两轮电瓶车充电站",
                "name:en": "Electric Bike Charging Station",
                "name:zh": "两轮电瓶车充电站",
                "payment:alipay": "yes",
                "payment:wechat": "yes"
            }
        },
        {
            "type": "node",
            "id": 9419709303,
            "lat": 22.621874,
            "lon": 114.0663713,
            "tags": {
                "amenity": "charging_station",
                "name": "汽车充电站"
            }
        },
        {
            "type": "node",
            "id": 9419709304,
            "lat": 22.6369908,
            "lon": 114.0502432,
            "tags": {
                "access": "yes",
                "amenity": "charging_station",
                "capacity": "50",
                "charge": "100min/1cny",
                "fee": "yes",
                "name": "两轮电瓶车充电站 Electric Bike Charging Station",
                "note": "工业区内",
                "payment:alipay": "yes",
                "payment:wechat": "yes"
            }
        },
        {
            "type": "node",
            "id": 9837489969,
            "lat": 22.6085888,
            "lon": 114.0609649,
            "tags": {
                "amenity": "post_office",
                "brand": "顺丰速运",
                "brand:en": "SF Express",
                "brand:wikidata": "Q7390019",
                "brand:zh": "顺丰速运",
                "name": "顺丰速运(深圳五和中转场)",
                "name:en": "SF Express",
                "name:zh": "顺丰速运",
                "post_office": "post_depot",
                "short_name": "顺丰"
            }
        },
        {
            "type": "node",
            "id": 9837489976,
            "lat": 22.6108163,
            "lon": 114.0939682,
            "tags": {
                "amenity": "post_office",
                "brand": "顺丰速运",
                "brand:en": "SF Express",
                "brand:short": "顺丰",
                "brand:wikidata": "Q7390019",
                "brand:zh": "顺丰速运",
                "name": "顺丰速运(深圳龙岗细靓工业区业务部)",
                "name:en": "SF Express",
                "name:zh": "顺丰速运",
                "short_name": "顺丰"
            }
        },
        {
            "type": "node",
            "id": 9839055129,
            "lat": 22.7110843,
            "lon": 114.0890002,
            "tags": {
                "amenity": "post_office",
                "brand": "顺丰速运",
                "brand:en": "SF Express",
                "brand:wikidata": "Q7390019",
                "brand:zh": "顺丰速运",
                "name": "顺丰速运(深圳和记中转场)",
                "name:en": "SF Express",
                "name:zh": "顺丰速运",
                "post_office": "post_depot",
                "short_name": "顺丰"
            }
        },
        {
            "type": "node",
            "id": 9839055138,
            "lat": 22.6455489,
            "lon": 114.1219193,
            "tags": {
                "amenity": "post_office",
                "brand": "顺丰速运",
                "brand:en": "SF Express",
                "brand:wikidata": "Q7390019",
                "brand:zh": "顺丰速运",
                "name": "顺丰速运(深圳龙岗国际珠宝园业务部)",
                "name:en": "SF Express",
                "short_name": "顺丰"
            }
        },
        {
            "type": "node",
            "id": 9876452408,
            "lat": 22.5227019,
            "lon": 114.0469884,
            "tags": {
                "amenity": "post_office",
                "brand": "顺丰速运",
                "brand:en": "SF Express",
                "brand:wikidata": "Q7390019",
                "brand:zh": "顺丰速运",
                "name": "顺丰速运",
                "name:en": "SF Express",
                "name:zh": "顺丰速运",
                "short_name": "顺丰"
            }
        },
        {
            "type": "node",
            "id": 11162371491,
            "lat": 22.6671859,
            "lon": 113.98926,
            "tags": {
                "addr:city": "深圳市",
                "addr:district": "龙华区",
                "addr:housenumber": "8-4",
                "addr:postcode": "518109",
                "addr:province": "广东省",
                "addr:street": "华繁路",
                "amenity": "post_office",
                "branch": "深圳龙华悠山美地C111铺店",
                "brand": "菜鸟驿站",
                "brand:en": "CAI NIAO",
                "brand:wikidata": "Q16947973",
                "brand:zh": "菜鸟驿站",
                "check_date": "2025-02-27",
                "internet_access": "no",
                "name": "菜鸟驿站",
                "name:en": "CAI NIAO",
                "name:zh": "菜鸟驿站",
                "name:zh-Hans": "菜鸟驿站",
                "opening_hours": "07:00-24:00",
                "payment:cards": "no",
                "payment:cash": "yes",
                "payment:credit_cards": "no",
                "payment:debit_cards": "no",
                "phone": "+86 188 1435 6462",
                "wheelchair": "no"
            }
        },
        {
            "type": "node",
            "id": 11203067879,
            "lat": 22.5856483,
            "lon": 113.94738,
            "tags": {
                "amenity": "post_office",
                "brand": "菜鸟驿站",
                "brand:en": "CAI NIAO",
                "brand:wikidata": "Q16947973",
                "brand:zh": "菜鸟驿站",
                "name": "菜鸟驿站",
                "name:en": "CAI NIAO",
                "name:zh": "菜鸟驿站"
            }
        },
        {
            "type": "node",
            "id": 11203067880,
            "lat": 22.589729,
            "lon": 113.9456741,
            "tags": {
                "amenity": "post_office",
                "brand": "菜鸟驿站",
                "brand:en": "CAI NIAO",
                "brand:wikidata": "Q16947973",
                "brand:zh": "菜鸟驿站",
                "name": "菜鸟驿站",
                "name:en": "CAI NIAO",
                "name:zh": "菜鸟驿站"
            }
        },
        {
            "type": "node",
            "id": 11203067881,
            "lat": 22.5956345,
            "lon": 113.939975,
            "tags": {
                "amenity": "post_office",
                "brand": "菜鸟驿站",
                "brand:en": "CAI NIAO",
                "brand:wikidata": "Q16947973",
                "brand:zh": "菜鸟驿站",
                "name": "菜鸟驿站",
                "name:en": "CAI NIAO",
                "name:zh": "菜鸟驿站"
            }
        },
        {
            "type": "node",
            "id": 11203067888,
            "lat": 22.5839177,
            "lon": 113.9360047,
            "tags": {
                "amenity": "post_office",
                "brand": "菜鸟驿站",
                "brand:en": "CAI NIAO",
                "brand:wikidata": "Q16947973",
                "brand:zh": "菜鸟驿站",
                "name": "菜鸟驿站",
                "name:en": "CAI NIAO",
                "name:zh": "菜鸟驿站"
            }
        },
        {
            "type": "node",
            "id": 11518186220,
            "lat": 22.5293588,
            "lon": 113.9237626,
            "tags": {
                "amenity": "post_office",
                "brand": "顺丰速运",
                "brand:en": "SF Express",
                "brand:short": "顺丰",
                "brand:wikidata": "Q7390019",
                "brand:zh": "顺丰速运",
                "name": "顺丰速运",
                "name:en": "SF Express",
                "name:zh": "顺丰速运",
                "short_name": "顺丰"
            }
        },
        {
            "type": "node",
            "id": 11520852672,
            "lat": 22.5320582,
            "lon": 114.5241676,
            "tags": {
                "amenity": "charging_station"
            }
        },
        {
            "type": "node",
            "id": 11599009347,
            "lat": 22.6258258,
            "lon": 114.018503,
            "tags": {
                "amenity": "charging_station",
                "brand": "NIO Power",
                "brand:en": "NIO Power",
                "brand:wikidata": "Q29921278",
                "capacity": "1",
                "name": "蔚来换电站",
                "name:en": "NIO Power Swap",
                "name:zh": "蔚来换电站"
            }
        },
        {
            "type": "node",
            "id": 11599009348,
            "lat": 22.6096792,
            "lon": 114.0171832,
            "tags": {
                "amenity": "charging_station",
                "brand": "NIO Power",
                "brand:en": "NIO Power",
                "brand:wikidata": "Q29921278",
                "name": "蔚来换电站",
                "name:en": "NIO Power Swap",
                "name:zh": "蔚来换电站"
            }
        },
        {
            "type": "node",
            "id": 11672526705,
            "lat": 22.5475764,
            "lon": 114.1323417,
            "tags": {
                "amenity": "charging_station"
            }
        },
        {
            "type": "node",
            "id": 11676016521,
            "lat": 22.5511925,
            "lon": 114.0931277,
            "tags": {
                "access": "permit",
                "amenity": "charging_station"
            }
        },
        {
            "type": "node",
            "id": 11991836095,
            "lat": 22.5562967,
            "lon": 113.9784044,
            "tags": {
                "access": "yes",
                "amenity": "charging_station",
                "brand": "特斯拉"
            }
        },
        {
            "type": "node",
            "id": 12155073430,
            "lat": 22.8036977,
            "lon": 113.9618589,
            "tags": {
                "amenity": "post_office",
                "name": "邮政所",
                "name:en": "Post Office",
                "name:zh": "邮政所",
                "name:zh-Hans": "邮政所"
            }
        },
        {
            "type": "node",
            "id": 12182405901,
            "lat": 22.6041038,
            "lon": 113.9922069,
            "tags": {
                "amenity": "post_office",
                "name": "学生宿舍8栋收发室",
                "opening_hours": "Mo-Su 08:00-00:00"
            }
        },
        {
            "type": "node",
            "id": 12190068801,
            "lat": 22.6058777,
            "lon": 113.9956508,
            "tags": {
                "amenity": "charging_station",
                "name": "17栋充电桩",
                "opening_hours": "24/7"
            }
        },
        {
            "type": "node",
            "id": 12190068901,
            "lat": 22.6037722,
            "lon": 113.9944258,
            "tags": {
                "amenity": "post_office",
                "name": "湖畔收发室",
                "opening_hours": "Mo-Su 08:00-19:00"
            }
        },
        {
            "type": "node",
            "id": 12205031726,
            "lat": 22.676037,
            "lon": 113.930792,
            "tags": {
                "amenity": "post_office",
                "brand": "菜鸟驿站",
                "brand:en": "CAI NIAO",
                "brand:wikidata": "Q16947973",
                "brand:zh": "菜鸟驿站",
                "name": "菜鸟驿站",
                "name:en": "CAI NIAO",
                "name:zh": "菜鸟驿站"
            }
        },
        {
            "type": "node",
            "id": 12205031727,
            "lat": 22.6748946,
            "lon": 113.9279786,
            "tags": {
                "amenity": "post_office",
                "brand": "菜鸟驿站",
                "brand:en": "CAI NIAO",
                "brand:wikidata": "Q16947973",
                "brand:zh": "菜鸟驿站",
                "name": "菜鸟驿站",
                "name:en": "CAI NIAO",
                "name:zh": "菜鸟驿站"
            }
        },
        {
            "type": "node",
            "id": 12251699160,
            "lat": 22.701687,
            "lon": 113.8053086,
            "tags": {
                "amenity": "charging_station"
            }
        },
        {
            "type": "node",
            "id": 12251699161,
            "lat": 22.7014377,
            "lon": 113.8043561,
            "tags": {
                "amenity": "charging_station"
            }
        },
        {
            "type": "node",
            "id": 12451293542,
            "lat": 22.5484968,
            "lon": 114.1309344,
            "tags": {
                "amenity": "charging_station"
            }
        },
        {
            "type": "node",
            "id": 12500404432,
            "lat": 22.52261,
            "lon": 113.944795,
            "tags": {
                "amenity": "charging_station",
                "brand": "NIO Power",
                "brand:en": "NIO Power",
                "brand:wikidata": "Q29921278",
                "name": "蔚来换电站",
                "name:en": "NIO Power Swap",
                "name:zh": "蔚来换电站"
            }
        },
        {
            "type": "node",
            "id": 12522973293,
            "lat": 22.6701895,
            "lon": 113.9926809,
            "tags": {
                "amenity": "post_office",
                "brand": "顺丰速运",
                "brand:en": "SF Express",
                "brand:short": "顺丰",
                "brand:wikidata": "Q7390019",
                "brand:zh": "顺丰速运",
                "entrance": "shop",
                "name": "顺丰速运",
                "name:en": "SF Express",
                "name:zh": "顺丰速运",
                "name:zh-Hans": "顺丰速运",
                "opening_hours": "Mo-Su,PH 08:00-22:00",
                "short_name": "顺丰",
                "wheelchair": "no"
            }
        },
        {
            "type": "node",
            "id": 12531663339,
            "lat": 22.6670543,
            "lon": 113.9902642,
            "tags": {
                "amenity": "post_office",
                "brand": "菜鸟驿站",
                "brand:en": "CAI NIAO",
                "brand:wikidata": "Q16947973",
                "brand:zh": "菜鸟驿站",
                "name": "菜鸟驿站",
                "name:en": "CAI NIAO",
                "name:zh": "菜鸟驿站",
                "name:zh-Hans": "菜鸟驿站",
                "opening_hours": "Mo-Su,PH 10:00-24:00",
                "wheelchair": "no"
            }
        },
        {
            "type": "node",
            "id": 12759266556,
            "lat": 22.7834236,
            "lon": 113.9459472,
            "tags": {
                "amenity": "charging_station",
                "brand": "小桔充电站"
            }
        },
        {
            "type": "node",
            "id": 12864803371,
            "lat": 22.5062515,
            "lon": 113.9431178,
            "tags": {
                "amenity": "post_office",
                "brand": "顺丰速运",
                "brand:en": "SF Express",
                "brand:short": "顺丰",
                "brand:wikidata": "Q7390019",
                "brand:zh": "顺丰速运",
                "name": "顺丰速运",
                "name:en": "SF Express",
                "name:zh": "顺丰速运",
                "opening_hours": "Mo-Su 09:00-21:00"
            }
        },
        {
            "type": "node",
            "id": 12864803372,
            "lat": 22.5062468,
            "lon": 113.9433966,
            "tags": {
                "amenity": "post_office",
                "brand": "中通快递",
                "brand:en": "ZTO Express",
                "brand:short": "中通",
                "brand:wikidata": "Q10876705",
                "brand:zh": "中通快递",
                "name": "中通快递",
                "name:en": "ZTO Express",
                "name:zh": "中通快递",
                "opening_hours": "Mo-Su 09:00-22:00"
            }
        },
        {
            "type": "node",
            "id": 12916954835,
            "lat": 22.5631337,
            "lon": 113.904809,
            "tags": {
                "addr:postcode": "518101",
                "amenity": "post_office",
                "brand": "中国邮政",
                "brand:en": "China Post",
                "brand:wikidata": "Q1066476",
                "brand:zh": "中国邮政",
                "name": "中国邮政",
                "name:en": "China Post",
                "name:zh": "中国邮政",
                "name:zh-Hans": "中国邮政",
                "name:zh-Hant": "中國郵政",
                "operator": "中国邮政"
            }
        },
        {
            "type": "node",
            "id": 13111278817,
            "lat": 22.5710888,
            "lon": 113.9605628,
            "tags": {
                "amenity": "charging_station",
                "fee": "yes",
                "motorcar": "yes",
                "motorcycle": "yes"
            }
        },
        {
            "type": "node",
            "id": 13176761910,
            "lat": 22.7070363,
            "lon": 114.4000762,
            "tags": {
                "amenity": "post_office",
                "brand": "菜鸟驿站",
                "brand:en": "CAI NIAO",
                "brand:wikidata": "Q16947973",
                "brand:zh": "菜鸟驿站",
                "name": "菜鸟驿站",
                "name:en": "CAI NIAO",
                "name:zh": "菜鸟驿站"
            }
        },
        {
            "type": "node",
            "id": 13176761911,
            "lat": 22.7070811,
            "lon": 114.4000742,
            "tags": {
                "amenity": "post_office",
                "name": "妈妈驿站",
                "name:en": "Mama Yizhan"
            }
        },
        {
            "type": "node",
            "id": 13177000867,
            "lat": 22.7015192,
            "lon": 114.3976058,
            "tags": {
                "amenity": "post_office",
                "brand": "顺丰速运",
                "brand:en": "SF Express",
                "brand:short": "顺丰",
                "brand:wikidata": "Q7390019",
                "brand:zh": "顺丰速运",
                "name": "顺丰速运",
                "name:en": "SF Express",
                "name:zh": "顺丰速运"
            }
        },
        {
            "type": "node",
            "id": 13227512043,
            "lat": 22.4720316,
            "lon": 113.9088887,
            "tags": {
                "amenity": "post_office",
                "branch": "邮轮中心店",
                "brand": "顺丰速运",
                "brand:en": "SF Express",
                "brand:short": "顺丰",
                "brand:wikidata": "Q7390019",
                "brand:zh": "顺丰速运",
                "level": "3",
                "name": "顺丰速运",
                "name:en": "SF Express",
                "name:zh": "顺丰速运"
            }
        },
        {
            "type": "node",
            "id": 13230361358,
            "lat": 22.5668946,
            "lon": 113.8777144,
            "tags": {
                "amenity": "post_office",
                "branch": "深圳新安花样年·花郡 168号店",
                "brand": "菜鸟驿站",
                "brand:en": "CAI NIAO",
                "brand:wikidata": "Q16947973",
                "brand:zh": "菜鸟驿站",
                "name": "菜鸟驿站",
                "name:en": "CAI NIAO",
                "name:zh": "菜鸟驿站",
                "opening_hours": "Mo-Su 10:00-23:00",
                "phone": "+86 188 1449 1947"
            }
        },
        {
            "type": "node",
            "id": 13230362804,
            "lat": 22.5561271,
            "lon": 113.8931139,
            "tags": {
                "amenity": "post_office",
                "branch": "宝创网点",
                "brand": "极兔速递",
                "name": "极兔速递",
                "name:zh": "极兔速递"
            }
        },
        {
            "type": "node",
            "id": 13230601547,
            "lat": 22.5720946,
            "lon": 113.8678722,
            "tags": {
                "amenity": "post_office",
                "brand": "菜鸟驿站",
                "brand:en": "CAI NIAO",
                "brand:wikidata": "Q16947973",
                "brand:zh": "菜鸟驿站",
                "name": "菜鸟驿站",
                "name:en": "CAI NIAO",
                "name:zh": "菜鸟驿站"
            }
        },
        {
            "type": "node",
            "id": 13230607052,
            "lat": 22.5799089,
            "lon": 113.8786976,
            "tags": {
                "amenity": "post_office",
                "brand": "顺丰速运",
                "brand:en": "SF Express",
                "brand:short": "顺丰",
                "brand:wikidata": "Q7390019",
                "brand:zh": "顺丰速运",
                "name": "顺丰速运",
                "name:en": "SF Express",
                "name:zh": "顺丰速运"
            }
        },
        {
            "type": "node",
            "id": 13231987608,
            "lat": 22.5592727,
            "lon": 113.8899205,
            "tags": {
                "amenity": "post_office",
                "brand": "顺丰速运",
                "brand:en": "SF Express",
                "brand:short": "顺丰",
                "brand:wikidata": "Q7390019",
                "brand:zh": "顺丰速运",
                "name": "顺丰速运",
                "name:en": "SF Express",
                "name:zh": "顺丰速运"
            }
        },
        {
            "type": "node",
            "id": 13232139917,
            "lat": 22.5626614,
            "lon": 113.8695556,
            "tags": {
                "amenity": "post_office",
                "brand": "菜鸟驿站",
                "brand:en": "CAI NIAO",
                "brand:wikidata": "Q16947973",
                "brand:zh": "菜鸟驿站",
                "name": "菜鸟驿站",
                "name:en": "CAI NIAO",
                "name:zh": "菜鸟驿站"
            }
        },
        {
            "type": "node",
            "id": 13232190426,
            "lat": 22.5637915,
            "lon": 113.8831486,
            "tags": {
                "amenity": "post_office",
                "brand": "顺丰速运",
                "brand:en": "SF Express",
                "brand:short": "顺丰",
                "brand:wikidata": "Q7390019",
                "brand:zh": "顺丰速运",
                "name": "顺丰速运",
                "name:en": "SF Express",
                "name:zh": "顺丰速运"
            }
        },
        {
            "type": "node",
            "id": 13232190427,
            "lat": 22.5698097,
            "lon": 113.8743289,
            "tags": {
                "amenity": "post_office",
                "brand": "顺丰速运",
                "brand:en": "SF Express",
                "brand:short": "顺丰",
                "brand:wikidata": "Q7390019",
                "brand:zh": "顺丰速运",
                "name": "顺丰速运",
                "name:en": "SF Express",
                "name:zh": "顺丰速运",
                "operator": "顺丰速运"
            }
        },
        {
            "type": "node",
            "id": 13232190428,
            "lat": 22.569722,
            "lon": 113.8794866,
            "tags": {
                "amenity": "post_office",
                "brand": "顺丰速运",
                "brand:en": "SF Express",
                "brand:short": "顺丰",
                "brand:wikidata": "Q7390019",
                "brand:zh": "顺丰速运",
                "name": "顺丰速运",
                "name:en": "SF Express",
                "name:zh": "顺丰速运"
            }
        },
        {
            "type": "node",
            "id": 13232190429,
            "lat": 22.5700444,
            "lon": 113.8922122,
            "tags": {
                "amenity": "post_office",
                "brand": "顺丰速运",
                "brand:en": "SF Express",
                "brand:short": "顺丰",
                "brand:wikidata": "Q7390019",
                "brand:zh": "顺丰速运",
                "name": "顺丰速运",
                "name:en": "SF Express",
                "name:zh": "顺丰速运"
            }
        },
        {
            "type": "node",
            "id": 13232190431,
            "lat": 22.5694809,
            "lon": 113.8935372,
            "tags": {
                "amenity": "post_office",
                "brand": "菜鸟驿站",
                "brand:en": "CAI NIAO",
                "brand:wikidata": "Q16947973",
                "brand:zh": "菜鸟驿站",
                "name": "菜鸟驿站",
                "name:en": "CAI NIAO",
                "name:zh": "菜鸟驿站"
            }
        },
        {
            "type": "node",
            "id": 13232190432,
            "lat": 22.5594747,
            "lon": 113.8714805,
            "tags": {
                "amenity": "post_office",
                "brand": "中通快递",
                "brand:en": "ZTO Express",
                "brand:short": "中通",
                "brand:wikidata": "Q10876705",
                "brand:zh": "中通快递",
                "name": "中通快递",
                "name:en": "ZTO Express",
                "name:zh": "中通快递"
            }
        },
        {
            "type": "node",
            "id": 13232190434,
            "lat": 22.5699441,
            "lon": 113.8786087,
            "tags": {
                "amenity": "post_office",
                "brand": "中通快递",
                "brand:en": "ZTO Express",
                "brand:short": "中通",
                "brand:wikidata": "Q10876705",
                "brand:zh": "中通快递",
                "name": "中通快递",
                "name:en": "ZTO Express",
                "name:zh": "中通快递"
            }
        },
        {
            "type": "node",
            "id": 13232190439,
            "lat": 22.5702431,
            "lon": 113.8795274,
            "tags": {
                "amenity": "post_office",
                "brand": "菜鸟驿站",
                "brand:en": "CAI NIAO",
                "brand:wikidata": "Q16947973",
                "brand:zh": "菜鸟驿站",
                "name": "菜鸟驿站",
                "name:en": "CAI NIAO",
                "name:zh": "菜鸟驿站"
            }
        },
        {
            "type": "node",
            "id": 13232212126,
            "lat": 22.5795437,
            "lon": 113.8598408,
            "tags": {
                "amenity": "post_office",
                "brand": "菜鸟驿站",
                "brand:en": "CAI NIAO",
                "brand:wikidata": "Q16947973",
                "brand:zh": "菜鸟驿站",
                "name": "菜鸟驿站",
                "name:en": "CAI NIAO",
                "name:zh": "菜鸟驿站"
            }
        },
        {
            "type": "node",
            "id": 13232212127,
            "lat": 22.57839,
            "lon": 113.8598776,
            "tags": {
                "amenity": "post_office",
                "brand": "菜鸟驿站",
                "brand:en": "CAI NIAO",
                "brand:wikidata": "Q16947973",
                "brand:zh": "菜鸟驿站",
                "name": "菜鸟驿站",
                "name:en": "CAI NIAO",
                "name:zh": "菜鸟驿站"
            }
        },
        {
            "type": "node",
            "id": 13232212130,
            "lat": 22.5753686,
            "lon": 113.8600456,
            "tags": {
                "amenity": "post_office",
                "brand": "菜鸟驿站",
                "brand:en": "CAI NIAO",
                "brand:wikidata": "Q16947973",
                "brand:zh": "菜鸟驿站",
                "name": "菜鸟驿站",
                "name:en": "CAI NIAO",
                "name:zh": "菜鸟驿站"
            }
        },
        {
            "type": "node",
            "id": 13234865764,
            "lat": 22.4976312,
            "lon": 113.8876056,
            "tags": {
                "amenity": "post_office",
                "brand": "顺丰速运",
                "brand:en": "SF Express",
                "brand:short": "顺丰",
                "brand:wikidata": "Q7390019",
                "brand:zh": "顺丰速运",
                "name": "顺丰速运",
                "name:en": "SF Express",
                "name:zh": "顺丰速运"
            }
        },
        {
            "type": "node",
            "id": 13235908433,
            "lat": 22.7209418,
            "lon": 113.7797085,
            "tags": {
                "amenity": "post_office",
                "brand": "中国邮政",
                "brand:en": "China Post",
                "brand:wikidata": "Q1066476",
                "brand:zh": "中国邮政",
                "name": "中国邮政",
                "name:en": "China Post",
                "name:zh": "中国邮政",
                "name:zh-Hans": "中国邮政",
                "name:zh-Hant": "中國郵政"
            }
        },
        {
            "type": "node",
            "id": 13236222335,
            "lat": 22.6031622,
            "lon": 113.8442044,
            "tags": {
                "amenity": "post_office",
                "brand": "顺丰速运",
                "brand:en": "SF Express",
                "brand:short": "顺丰",
                "brand:wikidata": "Q7390019",
                "brand:zh": "顺丰速运",
                "name": "顺丰速运",
                "name:en": "SF Express",
                "name:zh": "顺丰速运"
            }
        },
        {
            "type": "node",
            "id": 13258013518,
            "lat": 22.7206688,
            "lon": 114.0497566,
            "tags": {
                "amenity": "post_office",
                "brand": "中国邮政",
                "brand:en": "China Post",
                "brand:wikidata": "Q1066476",
                "brand:zh": "中国邮政",
                "name": "中国邮政",
                "name:en": "China Post",
                "name:zh": "中国邮政",
                "name:zh-Hans": "中国邮政",
                "name:zh-Hant": "中國郵政"
            }
        },
        {
            "type": "node",
            "id": 13258139292,
            "lat": 22.5369179,
            "lon": 113.9837917,
            "tags": {
                "amenity": "post_office",
                "brand": "中国邮政",
                "brand:en": "China Post",
                "brand:wikidata": "Q1066476",
                "brand:zh": "中国邮政",
                "name": "中国邮政",
                "name:en": "China Post",
                "name:zh": "中国邮政",
                "name:zh-Hans": "中国邮政",
                "name:zh-Hant": "中國郵政",
                "operator": "中国邮政"
            }
        },
        {
            "type": "node",
            "id": 13258165412,
            "lat": 22.516845,
            "lon": 113.9224466,
            "tags": {
                "amenity": "post_office",
                "brand": "中国邮政",
                "brand:en": "China Post",
                "brand:wikidata": "Q1066476",
                "brand:zh": "中国邮政",
                "name": "中国邮政",
                "name:en": "China Post",
                "name:zh": "中国邮政",
                "name:zh-Hans": "中国邮政",
                "name:zh-Hant": "中國郵政"
            }
        },
        {
            "type": "node",
            "id": 13258165429,
            "lat": 22.5040642,
            "lon": 113.8846829,
            "tags": {
                "amenity": "charging_station",
                "brand": "Tesla Supercharger",
                "brand:wikidata": "Q17089620",
                "name": "Tesla Supercharger",
                "name:zh": "特斯拉超级充电站",
                "operator": "Tesla",
                "operator:wikidata": "Q478214"
            }
        },
        {
            "type": "node",
            "id": 13266901209,
            "lat": 22.5700453,
            "lon": 113.8913427,
            "tags": {
                "amenity": "post_office",
                "brand": "中国邮政",
                "brand:en": "China Post",
                "brand:wikidata": "Q1066476",
                "brand:zh": "中国邮政",
                "name": "中国邮政",
                "name:en": "China Post",
                "name:zh": "中国邮政",
                "name:zh-Hans": "中国邮政",
                "name:zh-Hant": "中國郵政"
            }
        },
        {
            "type": "node",
            "id": 13375868510,
            "lat": 22.6046076,
            "lon": 113.8578902,
            "tags": {
                "amenity": "post_office",
                "brand": "中国邮政",
                "brand:en": "China Post",
                "brand:wikidata": "Q1066476",
                "brand:zh": "中国邮政",
                "name": "中国邮政",
                "name:en": "China Post",
                "name:zh": "中国邮政",
                "name:zh-Hans": "中国邮政",
                "name:zh-Hant": "中國郵政"
            }
        },
        {
            "type": "node",
            "id": 13415174936,
            "lat": 22.6584396,
            "lon": 114.0108082,
            "tags": {
                "addr:housenumber": "505",
                "addr:street": "龙华公园路",
                "amenity": "post_office",
                "branch": "龙华邮政支局",
                "brand": "中国邮政",
                "brand:en": "China Post",
                "brand:wikidata": "Q1066476",
                "brand:zh": "中国邮政",
                "check_date": "2026-02-27",
                "name": "中国邮政",
                "name:en": "China Post",
                "name:zh": "中国邮政",
                "name:zh-Hans": "中国邮政",
                "name:zh-Hant": "中國郵政"
            }
        },
        {
            "type": "node",
            "id": 13415174937,
            "lat": 22.6797936,
            "lon": 113.9960591,
            "tags": {
                "amenity": "post_office",
                "branch": "大浪邮政支局",
                "brand": "中国邮政",
                "brand:en": "China Post",
                "brand:wikidata": "Q1066476",
                "brand:zh": "中国邮政",
                "name": "中国邮政",
                "name:en": "China Post",
                "name:zh": "中国邮政",
                "name:zh-Hans": "中国邮政",
                "name:zh-Hant": "中國郵政"
            }
        },
        {
            "type": "node",
            "id": 13415174938,
            "lat": 22.6245655,
            "lon": 114.0305511,
            "tags": {
                "amenity": "post_office",
                "branch": "民治邮政支局",
                "brand": "中国邮政",
                "brand:en": "China Post",
                "brand:wikidata": "Q1066476",
                "brand:zh": "中国邮政",
                "name": "中国邮政",
                "name:en": "China Post",
                "name:zh": "中国邮政",
                "name:zh-Hans": "中国邮政",
                "name:zh-Hant": "中國郵政"
            }
        },
        {
            "type": "node",
            "id": 13415221366,
            "lat": 22.5333727,
            "lon": 114.1125662,
            "tags": {
                "amenity": "post_office",
                "branch": "火车站邮政所",
                "brand": "中国邮政",
                "brand:en": "China Post",
                "brand:wikidata": "Q1066476",
                "brand:zh": "中国邮政",
                "name": "中国邮政",
                "name:en": "China Post",
                "name:zh": "中国邮政",
                "name:zh-Hans": "中国邮政",
                "name:zh-Hant": "中國郵政"
            }
        },
        {
            "type": "node",
            "id": 13415221367,
            "lat": 22.5414257,
            "lon": 113.9159744,
            "tags": {
                "amenity": "post_office",
                "branch": "南头邮政支局",
                "brand": "中国邮政",
                "brand:en": "China Post",
                "brand:wikidata": "Q1066476",
                "brand:zh": "中国邮政",
                "name": "中国邮政",
                "name:en": "China Post",
                "name:zh": "中国邮政",
                "name:zh-Hans": "中国邮政",
                "name:zh-Hant": "中國郵政"
            }
        },
        {
            "type": "node",
            "id": 13477095475,
            "lat": 22.5410621,
            "lon": 114.1149156,
            "tags": {
                "amenity": "charging_station",
                "brand": "NIO Power",
                "brand:en": "NIO Power",
                "brand:wikidata": "Q29921278",
                "name": "蔚来换电站",
                "name:en": "NIO Power Swap",
                "name:zh": "蔚来换电站"
            }
        },
        {
            "type": "node",
            "id": 13518873921,
            "lat": 22.5062506,
            "lon": 113.9431584,
            "tags": {
                "amenity": "post_office",
                "brand": "京东物流",
                "brand:en": "JD Logistics",
                "brand:short": "京东",
                "brand:wikidata": "Q67936681",
                "brand:zh": "京东物流",
                "name": "京东物流",
                "name:en": "JD Logistics",
                "name:zh": "京东物流",
                "opening_hours": "Mo-Su 09:00-21:00"
            }
        },
        {
            "type": "node",
            "id": 13518873925,
            "lat": 22.5062498,
            "lon": 113.9430072,
            "tags": {
                "amenity": "post_office",
                "brand": "圆通速递",
                "brand:en": "YTO Express",
                "brand:short": "圆通",
                "brand:wikidata": "Q10926656",
                "brand:zh": "圆通速递",
                "name": "圆通速递",
                "name:en": "YTO Express",
                "name:zh": "圆通速递"
            }
        },
        {
            "type": "node",
            "id": 13591894782,
            "lat": 22.5971163,
            "lon": 114.5086711,
            "tags": {
                "amenity": "post_office",
                "branch": "所城邮政所",
                "brand": "中国邮政",
                "brand:en": "China Post",
                "brand:wikidata": "Q1066476",
                "brand:zh": "中国邮政",
                "name": "中国邮政",
                "name:en": "China Post",
                "name:zh": "中国邮政",
                "name:zh-Hans": "中国邮政",
                "name:zh-Hant": "中國郵政"
            }
        },
        {
            "type": "node",
            "id": 13592076091,
            "lat": 22.633391,
            "lon": 114.4137302,
            "tags": {
                "addr:housenumber": "53",
                "addr:street": "坪葵路",
                "amenity": "post_office",
                "branch": "葵涌邮政支局",
                "brand": "中国邮政",
                "brand:en": "China Post",
                "brand:wikidata": "Q1066476",
                "brand:zh": "中国邮政",
                "check_date": "2026-02-23",
                "name": "中国邮政",
                "name:en": "China Post",
                "name:zh": "中国邮政",
                "name:zh-Hans": "中国邮政",
                "name:zh-Hant": "中國郵政"
            }
        },
        {
            "type": "node",
            "id": 13592084903,
            "lat": 22.6353184,
            "lon": 114.4225719,
            "tags": {
                "amenity": "post_office",
                "branch": "中新邮政所",
                "brand": "中国邮政",
                "brand:en": "China Post",
                "brand:wikidata": "Q1066476",
                "brand:zh": "中国邮政",
                "name": "中国邮政",
                "name:en": "China Post",
                "name:zh": "中国邮政",
                "name:zh-Hans": "中国邮政",
                "name:zh-Hant": "中國郵政"
            }
        },
        {
            "type": "node",
            "id": 13593067697,
            "lat": 22.5978658,
            "lon": 114.4698814,
            "tags": {
                "amenity": "post_office",
                "branch": "大鹏邮政支局",
                "brand": "中国邮政",
                "brand:en": "China Post",
                "brand:wikidata": "Q1066476",
                "brand:zh": "中国邮政",
                "check_date": "2026-02-23",
                "name": "中国邮政",
                "name:en": "China Post",
                "name:zh": "中国邮政",
                "name:zh-Hans": "中国邮政",
                "name:zh-Hant": "中國郵政"
            }
        },
        {
            "type": "node",
            "id": 13593067698,
            "lat": 22.5371446,
            "lon": 114.4884013,
            "tags": {
                "amenity": "post_office",
                "branch": "南澳邮政支局",
                "brand": "中国邮政",
                "brand:en": "China Post",
                "brand:wikidata": "Q1066476",
                "brand:zh": "中国邮政",
                "check_date": "2026-02-23",
                "name": "中国邮政",
                "name:en": "China Post",
                "name:zh": "中国邮政",
                "name:zh-Hans": "中国邮政",
                "name:zh-Hant": "中國郵政"
            }
        },
        {
            "type": "node",
            "id": 13647194142,
            "lat": 22.6311649,
            "lon": 113.841846,
            "tags": {
                "amenity": "post_office",
                "branch": "航城邮政支局",
                "brand": "中国邮政",
                "brand:en": "China Post",
                "brand:wikidata": "Q1066476",
                "brand:zh": "中国邮政",
                "check_date": "2026-03-14",
                "name": "中国邮政",
                "name:en": "China Post",
                "name:zh": "中国邮政"
            }
        }
    ]
}